[
    {
        "id": 1,
        "name": "ТС #01",
        "driverName": "Андрей",
        "category": "Грузовой",
        "phoneNumber": "+375291111111",
        "latitude": 52.895233,
        "longitude": 30.053785
    },
    {
        "id": 2,
        "name": "ТС #02",
        "driverName": "Степан",
        "category": "Пассажирский",
        "phoneNumber": "+375291111111",
        "latitude": 52.895233,
        "longitude": 30.053785
    },
    {
        "id": 3,
        "name": "ТС #03",
        "driverName": "Николай",
        "category": "Спецтранспорт",
        "phoneNumber": "+375291111111",
        "latitude": 52.895233,
        "longitude": 30.053785
    },
    {
        "id": 4,
        "name": "ТС #04",
        "driverName": "Андрей",
        "category": "Грузовой",
        "phoneNumber": "+375291111111",
        "latitude": 52.895233,
        "longitude": 30.053785
    },
    {
        "id": 5,
        "name": "ТС #05",
        "driverName": "Степан",
        "category": "Пассажирский",
        "phoneNumber": "+375291111111",
        "latitude": 52.895233,
        "longitude": 30.053785
    },
    {
        "id": 6,
        "name": "ТС #06",
        "driverName": "Николай",
        "category": "Спецтранспорт",
        "phoneNumber": "+375291111111",
        "latitude": 52.895233,
        "longitude": 30.053785
    },
    {
        "id": 7,
        "name": "ТС #07",
        "driverName": "Андрей",
        "category": "Грузовой",
        "phoneNumber": "+375291111111",
        "latitude": 52.895233,
        "longitude": 30.053785
    },
    {
        "id": 8,
        "name": "ТС #08",
        "driverName": "Степан",
        "category": "Пассажирский",
        "phoneNumber": "+375291111111",
        "latitude": 52.895233,
        "longitude": 30.053785
    },
    {
        "id": 9,
        "name": "ТС #09",
        "driverName": "Николай",
        "category": "Спецтранспорт",
        "phoneNumber": "+375291111111",
        "latitude": 52.895233,
        "longitude": 30.053785
    },
    {
        "id": 10,
        "name": "ТС #10",
        "driverName": "Андрей",
        "category": "Грузовой",
        "phoneNumber": "+375291111111",
        "latitude": 52.895233,
        "longitude": 30.053785
    }
]